City_ID,City,Lat,Lng,Max Temp,Humidity,Cloudiness,Wind Speed,Country,Date
0,mariupol,47.0667,37.5,18.79,57,100,1.59,UA,1694462852
1,grytviken,-54.2811,-36.5092,-3.04,82,11,4.2,GS,1694462910
2,hermanus,-34.4187,19.2345,6.0,63,63,4.46,ZA,1694462664
3,margaret river,-33.95,115.0667,17.06,78,68,7.43,AU,1694462910
4,utrik,11.2278,169.8474,28.97,79,42,9.01,MH,1694462910
5,port-aux-francais,-49.35,70.2167,2.31,78,32,9.67,TF,1694462911
6,pacific grove,36.6177,-121.9166,26.33,86,20,5.14,US,1694462911
7,ushuaia,-54.8,-68.3,3.57,96,100,1.84,AR,1694462911
8,adamstown,-25.066,-130.1015,22.06,85,20,13.0,PN,1694462911
9,hawaiian paradise park,19.5933,-154.9731,24.46,88,100,3.6,US,1694462911
10,tidjikja,18.5564,-11.4271,34.18,35,77,4.13,MR,1694462912
11,whitehorse,60.7161,-135.0538,16.12,47,75,7.2,CA,1694462675
12,afaahiti,-17.75,-149.2833,23.93,91,95,6.05,PF,1694462912
13,bamboo flat,11.7,92.7167,26.05,89,75,3.09,IN,1694462669
14,papatowai,-46.5619,169.4708,4.69,94,100,6.39,NZ,1694462912
15,port hueneme,34.1478,-119.1951,36.16,54,75,4.12,US,1694462743
16,bredasdorp,-34.5322,20.0403,6.65,64,43,3.49,ZA,1694462913
17,inhambane,-23.865,35.3833,23.82,79,0,6.8,MZ,1694462913
18,uturoa,-16.7333,-151.4333,24.68,81,23,3.76,PF,1694462913
19,ponta delgada,37.7333,-25.6667,23.4,73,20,3.09,PT,1694462913
20,waitangi,-43.9535,-176.5597,13.23,87,100,5.81,NZ,1694462914
21,yaguajay,22.3272,-79.2378,30.85,65,4,5.95,CU,1694462914
22,guaraniacu,-25.1008,-52.8781,25.66,53,0,2.47,BR,1694462914
23,vilyuchinsk,52.9306,158.4028,7.15,78,100,4.51,RU,1694462914
24,tazovsky,67.4667,78.7,9.76,77,81,3.94,RU,1694462914
25,tangalle,6.024,80.7911,24.46,93,100,6.93,LK,1694462915
26,orchard homes,46.8633,-114.0484,28.55,36,0,0.0,US,1694462915
27,touros,-5.1989,-35.4608,26.07,69,0,7.56,BR,1694462915
28,puli,23.9664,120.9695,24.57,79,96,2.07,TW,1694462915
29,port augusta,-32.5,137.7667,10.68,60,0,1.63,AU,1694462916
30,iqaluit,63.7506,-68.5145,2.85,93,100,1.03,CA,1694462916
31,nova sintra,14.8667,-24.7167,24.43,82,56,3.43,CV,1694462916
32,bikenibeu village,1.3673,173.1241,26.98,83,75,0.0,KI,1694462916
33,nueva gerona,21.8833,-82.8,31.81,61,5,3.56,CU,1694462916
34,cape coast,5.1053,-1.2466,24.67,91,88,6.64,GH,1694462917
35,zambezi,-13.5432,23.1047,22.44,15,92,1.62,ZM,1694462917
36,kodiak,57.79,-152.4072,12.73,62,100,3.6,US,1694462917
37,ribeira grande,38.5167,-28.7,23.22,78,75,3.6,PT,1694462917
38,vorgashor,67.5833,63.95,11.66,91,100,3.24,RU,1694462917
39,codrington,-38.2667,141.9667,10.64,83,94,5.01,AU,1694462918
40,rosetta,31.4044,30.4164,26.78,74,12,5.27,EG,1694462918
41,ixtapa,20.7,-105.2,33.46,70,40,5.66,MX,1694462918
42,ilulissat,69.2167,-51.1,4.01,75,75,3.09,GL,1694462918
43,nyurba,63.2842,118.3319,5.94,95,100,1.47,RU,1694462918
44,jamestown,42.097,-79.2353,25.01,59,0,3.6,US,1694462815
45,albany,42.6001,-73.9662,23.78,84,95,1.79,US,1694462919
46,castillos,-34.1667,-53.8333,18.57,98,100,1.16,UY,1694462919
47,rudsar,37.1376,50.288,20.84,77,90,2.15,IR,1694462919
48,hamilton,39.1834,-84.5333,30.43,47,20,3.6,US,1694462637
49,georgetown,5.4112,100.3354,26.96,89,20,0.0,MY,1694462920
50,progreso,21.2833,-89.6667,33.95,65,100,5.73,MX,1694462920
51,san fernando,15.0286,120.6898,25.85,95,99,1.22,PH,1694462920
52,stanley,54.868,-1.6985,13.77,93,100,2.57,GB,1694462674
53,igarka,67.4667,86.5833,10.36,87,100,4.09,RU,1694462920
54,kalix,65.853,23.1565,15.29,81,100,6.61,SE,1694462921
55,coahuayana de hidalgo,18.7,-103.6583,32.18,65,32,3.29,MX,1694462921
56,saipan,15.1355,145.701,26.39,94,75,4.12,MP,1694462921
57,arraial do cabo,-22.9661,-42.0278,23.92,73,0,8.75,BR,1694462921
58,klaksvik,62.2266,-6.589,8.51,87,97,13.7,FO,1694462780
59,kayangel,8.0823,134.7173,27.36,79,70,6.85,PW,1694462922
60,nuuk,64.1835,-51.7216,4.34,87,75,6.71,GL,1694462922
61,wailua homesteads,22.0669,-159.378,27.24,77,20,6.17,US,1694462922
62,yellowknife,62.456,-114.3525,19.12,64,6,7.15,CA,1694462922
63,talnakh,69.4865,88.3972,11.23,94,100,3.81,RU,1694462922
64,qusar,41.4273,48.4289,12.94,86,100,0.7,AZ,1694462923
65,luderitz,-26.6481,15.1594,12.79,52,3,13.12,NA,1694462923
66,qaqortoq,60.7167,-46.0333,4.98,83,94,3.05,GL,1694462923
67,revda,56.801,59.9303,11.51,82,100,4.12,RU,1694462923
68,dudinka,69.4058,86.1778,11.46,91,99,6.35,RU,1694462923
69,fort bragg,35.139,-79.006,32.12,52,40,1.79,US,1694462924
70,hasaki,35.7333,140.8333,25.16,78,98,2.18,JP,1694462924
71,kushiro,42.975,144.3747,20.12,99,93,3.01,JP,1694462924
72,bethel,41.3712,-73.414,27.6,76,20,2.57,US,1694462924
73,enewetak,11.3474,162.3373,28.65,74,57,3.17,MH,1694462924
74,san julian,21.0167,-102.1667,25.76,27,1,3.16,MX,1694462925
75,sao felix do xingu,-6.6447,-51.995,36.88,23,69,1.56,BR,1694462925
76,la fria,8.2203,-72.2439,35.06,44,9,2.09,VE,1694462925
77,longyearbyen,78.2186,15.6401,2.91,60,75,2.57,SJ,1694462925
78,remire-montjoly,4.9167,-52.2667,30.02,74,20,5.14,GF,1694462926
79,siwa oasis,29.2041,25.5195,25.91,51,0,4.1,EG,1694462926
80,celestun,20.8667,-90.4,30.43,64,100,4.9,MX,1694462926
81,dryden,49.7833,-92.7503,11.6,64,97,4.32,CA,1694462926
82,salinera colan,-5.0333,-81.0667,25.22,62,53,8.48,PE,1694462927
83,edinburgh of the seven seas,-37.0676,-12.3116,13.29,79,100,10.0,SH,1694462927
84,callao,-12.0667,-77.15,22.62,77,100,7.2,PE,1694462828
85,tinghir,31.5157,-5.5343,26.76,18,12,3.25,MA,1694462927
86,morondava,-20.2833,44.2833,23.82,86,0,0.93,MG,1694462927
87,ketchikan,55.3422,-131.6461,13.26,88,100,7.72,US,1694462928
88,baiti,13.745,-14.7482,25.53,90,100,1.87,SN,1694462928
89,badger,64.8,-147.5333,8.32,94,100,2.57,US,1694462928
90,orsa,54.5153,30.4053,14.0,68,0,3.02,BY,1694462928
91,isafjordur,66.0755,-23.124,6.5,57,3,0.71,IS,1694462928
92,las tablas,7.7667,-80.2833,28.99,99,100,1.31,PA,1694462929
93,fortuna,40.5982,-124.1573,20.52,87,100,5.14,US,1694462929
94,haiku-pauwela,20.9219,-156.3051,29.01,55,20,10.8,US,1694462929
95,la ronge,55.1001,-105.2842,17.74,38,10,4.22,CA,1694462929
96,nantucket,41.2835,-70.0995,24.52,100,75,2.57,US,1694462639
97,aasiaat,68.7098,-52.8699,2.58,83,100,4.32,GL,1694462930
98,lebu,-37.6167,-73.65,11.09,72,63,2.71,CL,1694462930
99,olonkinbyen,70.9221,-8.7187,2.96,76,100,6.12,SJ,1694462930
100,mpulungu,-8.7623,31.1141,25.45,59,26,1.72,ZM,1694462930
101,katsuren-haebaru,26.3369,127.8719,27.01,88,0,2.57,JP,1694462931
102,iskateley,67.6803,53.1512,9.92,90,46,2.29,RU,1694462933
103,port mathurin,-19.6833,63.4167,22.74,77,63,10.44,MU,1694462933
104,fale old settlement,-9.3852,-171.2468,27.7,78,45,5.41,TK,1694462933
105,tomohon,1.3346,124.8392,18.52,90,83,1.39,ID,1694462933
106,eyl,7.9803,49.8164,26.34,77,56,10.41,SO,1694462933
107,dien bien phu,21.3833,103.0167,22.96,100,100,0.37,VN,1694462934
108,port elizabeth,-33.918,25.5701,9.16,76,75,3.09,ZA,1694462934
109,tiksi,71.6872,128.8694,3.45,82,26,7.57,RU,1694462934
110,petropavlovsk-kamchatsky,53.0452,158.6483,6.33,93,0,6.0,RU,1694462934
111,ust-nera,64.5667,143.2,-1.1,86,21,2.5,RU,1694462934
112,chengyang,27.0892,119.6453,21.79,95,91,0.8,CN,1694462935
113,flying fish cove,-10.4217,105.6791,23.82,94,100,5.66,CX,1694462935
114,blackmans bay,-43.0167,147.3167,8.62,83,100,2.41,AU,1694462935
115,mount gambier,-37.8333,140.7667,8.77,81,50,3.31,AU,1694462935
116,holualoa,19.6228,-155.9522,25.91,83,40,3.6,US,1694462936
117,kapuskasing,49.4169,-82.4331,11.05,82,100,5.14,CA,1694462936
118,alice springs,-23.7,133.8833,2.75,48,0,0.0,AU,1694462782
119,new norfolk,-42.7826,147.0587,9.28,95,98,1.02,AU,1694462936
120,lakota,5.8528,-5.6883,22.87,95,10,1.4,CI,1694462937
121,conduaga,8.862,117.4893,26.43,82,99,0.77,PH,1694462937
122,smirnovo,54.5125,69.4222,13.72,59,100,8.97,KZ,1694462937
123,crane,31.3974,-102.3501,36.01,24,36,6.99,US,1694462937
124,bilibino,68.0546,166.4372,4.37,74,15,0.78,RU,1694462938
125,sarina,-21.4333,149.2167,17.01,78,55,6.31,AU,1694462938
126,puerto natales,-51.7236,-72.4875,6.14,80,100,3.11,CL,1694462728
127,mitsamiouli,-11.3847,43.2844,24.71,81,17,5.26,KM,1694462938
128,prado,-17.3411,-39.2208,24.02,74,0,2.88,BR,1694462887
129,punta arenas,-53.15,-70.9167,4.06,87,75,2.57,CL,1694462939
130,guerrero negro,27.9769,-114.0611,28.12,57,48,4.68,MX,1694462939
131,nar'yan-mar,67.6713,53.087,10.07,90,49,2.27,RU,1694462939
132,pariaman,-0.619,100.12,25.03,90,91,3.1,ID,1694462939
133,nemuro,43.3236,145.575,18.6,99,100,5.71,JP,1694462939
134,businga,3.3333,20.8833,22.21,98,100,0.78,CD,1694462940
135,nogliki,51.8333,143.1667,12.61,93,100,4.58,RU,1694462940
136,kalmunai,7.4167,81.8167,26.02,80,100,2.62,LK,1694462940
137,lensk,60.7253,114.9278,7.58,83,100,4.19,RU,1694462940
138,klyuchi,52.2667,79.1667,13.04,81,100,7.63,RU,1694462941
139,tha kham,9.1107,99.2321,27.89,83,100,2.98,TH,1694462941
140,avarua,-21.2078,-159.775,22.03,60,100,2.57,CK,1694462941
141,tofol,5.3248,163.0078,27.64,74,93,3.08,FM,1694462941
142,acarau,-2.8856,-40.12,27.14,73,0,9.64,BR,1694462941
143,kapa'a,22.0752,-159.319,27.99,76,20,6.17,US,1694462942
144,lang son,21.8333,106.7333,23.92,98,99,0.43,VN,1694462943
145,bontang,0.1333,117.5,24.84,90,100,3.2,ID,1694462943
146,east london,-33.0153,27.9116,12.91,62,81,10.8,ZA,1694462682
147,fisterra,42.9049,-9.2629,20.01,91,9,3.17,ES,1694462944
148,quellon,-43.1167,-73.6167,10.09,66,63,4.09,CL,1694462944
149,cidreira,-30.1811,-50.2056,21.31,79,10,6.02,BR,1694462944
150,vernon,50.2581,-119.2691,27.09,27,100,1.07,CA,1694462821
151,launceston,-41.45,147.1667,9.8,87,100,4.63,AU,1694462945
152,astrakhan,46.3497,48.0408,14.95,76,0,3.13,RU,1694462945
153,shibetsu,43.659,145.132,19.82,99,100,4.04,JP,1694462945
154,thompson,55.7435,-97.8558,17.22,35,63,3.21,CA,1694462946
155,invercargill,-46.4,168.35,5.57,91,99,4.92,NZ,1694462946
156,inarajan village,13.2736,144.7484,27.54,93,98,5.9,GU,1694462946
157,waynesboro,38.0685,-78.8895,29.39,51,48,0.69,US,1694462904
158,cabo san lucas,22.8909,-109.9124,35.9,67,0,5.66,MX,1694462947
159,ostrowiec swietokrzyski,50.9294,21.3853,21.18,70,15,1.55,PL,1694462947
160,gadzhiyevo,69.2551,33.3362,11.63,62,100,4.2,RU,1694462947
161,buenavista del norte,28.3746,-16.861,25.25,76,100,4.58,ES,1694462934
162,dunedin,-45.8742,170.5036,6.0,69,7,3.57,NZ,1694462831
163,constantia,44.1833,28.65,17.61,61,36,3.51,RO,1694462948
164,puerto ayora,-0.7393,-90.3518,28.98,87,52,4.02,EC,1694462948
165,hafnarfjordur,64.0671,-21.9377,8.21,59,7,3.32,IS,1694462949
166,kyshtovka,56.555,76.6271,7.92,93,1,4.03,RU,1694462949
167,brookings,44.3114,-96.7984,22.47,44,75,0.0,US,1694462949
168,la passe,45.5549,-0.8967,23.13,88,54,4.42,FR,1694462950
169,marsabit,2.3284,37.9899,21.59,56,12,9.63,KE,1694462950
170,wewak,-3.5534,143.6268,25.87,83,93,2.51,PG,1694462951
171,tura,25.5198,90.2201,23.96,91,99,0.74,IN,1694462951
172,jinghong,21.991,100.7341,21.62,99,92,0.52,CN,1694462951
173,anadyr,64.75,177.4833,4.28,93,20,1.0,RU,1694462952
174,san ignacio,17.1561,-89.0714,33.08,62,40,4.12,BZ,1694462952
175,aripuana,-9.1667,-60.6333,34.11,39,83,2.12,BR,1694462952
176,rongelap,11.1635,166.8941,28.81,79,71,6.86,MH,1694462953
177,hithadhoo,-0.6,73.0833,27.92,77,97,4.1,MV,1694462953
178,westport,41.1415,-73.3579,28.54,79,0,3.09,US,1694462797
179,laguna,38.421,-121.4238,33.13,33,0,2.06,US,1694462954
180,ad dawadimi,24.5077,44.3924,31.38,12,72,2.92,SA,1694462954
181,sola,-13.8833,167.55,25.3,79,41,7.45,VU,1694462725
182,manggar,-2.8833,108.2667,26.61,82,96,5.22,ID,1694462841
183,urazovo,50.0836,38.0395,15.57,57,100,0.45,RU,1694462955
184,biloela,-24.4167,150.5,11.19,89,0,3.62,AU,1694462955
185,udachny,66.4167,112.4,3.03,93,87,2.5,RU,1694462955
186,yuzhno-kurilsk,44.0306,145.8556,17.73,99,100,3.73,RU,1694462956
187,kone,-21.0595,164.8658,18.88,84,3,1.7,NC,1694462956
188,rio grande,-32.035,-52.0986,25.06,86,100,5.17,BR,1694462956
189,nizhnevartovsk,60.9344,76.5531,6.01,100,20,0.0,RU,1694462956
190,xiannu,32.4367,119.5508,24.94,90,100,2.41,CN,1694462956
191,sisimiut,66.9395,-53.6735,5.2,85,100,4.7,GL,1694462957
192,selibaby,15.159,-12.1829,32.25,53,100,3.86,MR,1694462957
193,colonia,50.9333,6.95,24.97,73,0,1.03,DE,1694462839
194,dinanagar,32.15,75.4667,26.68,76,0,2.08,IN,1694462957
195,zaoyang,32.1272,112.7542,21.7,96,100,4.29,CN,1694462838
196,palikir - national government center,6.9248,158.1611,24.41,94,40,1.54,FM,1694462958
197,mount pearl,47.5166,-52.7813,16.85,86,75,3.6,CA,1694462958
198,vetapalem,15.7833,80.3167,27.12,79,100,3.94,IN,1694462958
199,presidente medici,-11.1753,-61.9014,36.45,29,91,0.87,BR,1694462930
200,byron bay,-28.65,153.6167,9.84,89,63,4.49,AU,1694462807
201,norton shores,43.1689,-86.2639,18.47,84,100,2.57,US,1694462959
202,sao joao da barra,-21.6403,-41.0511,25.05,83,35,8.44,BR,1694462959
203,taloqan,36.7361,69.5345,21.35,43,0,1.64,AF,1694462959
204,dasht-e archi,37.1333,69.1667,23.73,37,0,2.4,AF,1694462959
205,cam pha mines,21.0167,107.3,24.46,93,100,1.94,VN,1694462960
206,esquel,-42.9,-71.3167,6.04,59,10,8.85,AR,1694462960
207,tamalous,36.8376,6.6402,23.71,51,13,0.86,DZ,1694462960
208,nadi,-17.8,177.4167,24.0,69,20,2.57,FJ,1694462961
209,kargasok,59.0556,80.8572,7.13,94,8,2.89,RU,1694462961
210,san francisco acuautla,19.3333,-98.85,24.13,35,86,1.87,MX,1694462961
211,hilo,19.7297,-155.09,29.6,90,100,3.6,US,1694462699
212,tolanaro,-25.0319,46.9987,20.66,86,0,6.24,MG,1694462962
213,sheregesh,52.9209,87.9869,11.33,97,100,1.14,RU,1694462962
214,taksimo,56.3444,114.8794,4.8,78,100,1.7,RU,1694462962
215,spring creek,40.7266,-115.5859,27.67,18,3,2.19,US,1694462962
216,polyarnyy,69.1989,33.4478,11.87,62,100,4.21,RU,1694462963
217,pokhara,28.2333,83.9833,21.9,91,89,1.83,NP,1694462963
218,saudarkrokur,65.7461,-19.6394,2.95,72,2,0.25,IS,1694462963
219,cockburn town,21.4612,-71.1419,29.55,75,67,6.67,TC,1694462963
220,kruisfontein,-34.0033,24.7314,9.15,57,18,6.8,ZA,1694462963
221,malango,-2.9627,119.9001,18.11,96,52,0.87,ID,1694462964
222,inirida,3.8653,-67.9239,30.1,73,22,1.42,CO,1694462964
223,plettenberg bay,-34.0527,23.3716,8.61,72,10,4.27,ZA,1694462964
224,kas,36.2018,29.6377,26.02,53,28,3.1,TR,1694462964
225,merizo village,13.2658,144.6691,27.31,93,98,6.09,GU,1694462965
226,el haouaria,37.05,11.0144,24.06,75,21,3.32,TN,1694462965
227,beau vallon,-20.4189,57.6953,24.01,74,9,6.64,MU,1694462965
228,ryotsu-minato,38.0833,138.4333,25.69,83,99,0.4,JP,1694462965
229,usogorsk,63.4106,48.6872,9.83,90,78,1.34,RU,1694462966
230,pitimbu,-7.4706,-34.8086,26.33,76,3,6.44,BR,1694462966
231,lemvig,56.5486,8.3102,19.0,95,100,4.15,DK,1694462966
232,nahrin,36.0649,69.1334,19.52,44,0,0.55,AF,1694462967
233,kidal,18.4411,1.4078,34.7,27,40,11.55,ML,1694462967
234,pisco,-13.7,-76.2167,23.03,60,0,4.63,PE,1694462967
235,sitangkai,4.6628,119.3928,27.9,76,59,4.18,PH,1694462968
236,lunao,8.8503,125.0564,25.69,84,96,1.39,PH,1694462968
237,nabire,-3.3667,135.4833,23.89,93,100,1.63,ID,1694462968
238,gannan,47.9147,123.5031,8.04,79,0,2.82,CN,1694462969
239,an nimas,19.1455,42.1201,20.37,56,52,0.98,SA,1694462969
240,isangel,-19.55,169.2667,21.77,79,100,3.9,VU,1694462969
241,flin flon,54.7682,-101.865,18.13,36,6,3.87,CA,1694462969
242,ceeldheer,3.8488,47.1806,25.27,84,48,6.57,SO,1694462970
243,litchfield,41.7668,-73.2501,25.59,88,69,0.86,US,1694462759
244,coquimbo,-29.9533,-71.3436,19.85,63,0,7.72,CL,1694462449
245,vatutine,49.015,31.0621,16.11,50,90,2.67,UA,1694462970
246,ursulo galvan,22.7333,-98.3,36.95,43,0,2.61,MX,1694462971
247,west livingston,30.6983,-95.0019,35.01,34,2,1.09,US,1694462971
248,santa isabel,-23.3156,-46.2214,29.84,38,0,2.53,BR,1694462971
249,chonchi,-42.6128,-73.8092,11.73,75,74,2.85,CL,1694462971
250,am timan,11.0297,20.2827,24.77,85,13,2.27,TD,1694462972
251,northam,51.0333,-4.2167,17.56,94,6,2.19,GB,1694462972
252,tongchuanshi,35.0806,109.0897,19.17,73,100,0.15,CN,1694462972
253,wagar,16.1525,36.2032,28.87,52,100,3.3,SD,1694462973
254,uenohara,35.6167,139.1167,24.27,92,30,1.01,JP,1694462973
255,noble,35.1392,-97.3948,26.77,58,100,4.63,US,1694462973
256,port alfred,-33.5906,26.891,10.1,79,68,2.68,ZA,1694462973
257,dwarka,22.2394,68.9678,27.1,84,52,5.19,IN,1694462973
258,ringkobing,56.0901,8.244,18.9,95,93,4.1,DK,1694462974
259,quang ngai,15.1167,108.8,26.32,76,100,2.22,VN,1694462974
260,limassol,34.675,33.0333,26.04,78,0,2.06,CY,1694462974
261,hami,42.8,93.45,25.57,21,93,1.74,CN,1694462974
262,egilsstadir,65.2653,-14.3948,2.15,79,18,2.02,IS,1694462975
263,peniche,39.3558,-9.3811,20.16,93,0,1.44,PT,1694462975
264,huayin,34.5675,110.0921,21.41,81,100,1.05,CN,1694462976
265,de aar,-30.6497,24.0123,3.49,51,2,6.5,ZA,1694462977
266,maffra,-37.9667,146.9833,8.13,82,100,1.79,AU,1694462977
267,marshfield,44.6689,-90.1718,18.49,63,75,4.63,US,1694462977
268,arkhipo-osipovka,44.37,38.52,16.92,54,1,5.83,RU,1694462978
269,as sulayyil,20.4607,45.5779,32.68,12,89,2.48,SA,1694462978
270,bandon,51.7469,-8.7425,15.77,90,100,5.71,IE,1694462978
271,chenzhou,25.8,113.0333,23.36,94,86,1.75,CN,1694462978
272,west island,-12.1568,96.8225,24.99,78,40,5.66,CC,1694462979
273,kingston,17.997,-76.7936,31.53,74,75,7.72,JM,1694462550
274,qusmuryn,52.4503,64.6311,11.98,88,100,10.03,KZ,1694462979
275,labytnangi,66.6572,66.4183,11.44,79,10,2.63,RU,1694462979
276,honavar,14.2833,74.45,24.93,91,100,2.42,IN,1694462980
277,arkhangel'sk,64.5401,40.5433,15.26,82,100,2.32,RU,1694462980
278,awash,8.9833,40.1667,26.99,50,90,4.64,ET,1694462980
279,waat,51.1454,6.4958,24.94,80,75,1.03,DE,1694462980
280,xiaoweizhai,26.1903,107.5125,21.19,98,100,1.15,CN,1694462981
281,la rinconada,37.4873,-5.9826,25.03,63,94,1.79,ES,1694462981
282,mejit,10.2753,170.8646,28.62,79,96,8.87,MH,1694462981
283,umm kaddadah,13.6017,26.6876,32.88,41,83,6.74,SD,1694462981
284,bojnurd,37.4747,57.329,17.91,51,0,1.18,IR,1694462982
285,tiko,4.0745,9.3699,25.91,90,98,1.97,CM,1694462982
286,kristiansund,63.1115,7.732,14.03,88,75,9.77,NO,1694462964
287,ancud,-41.8697,-73.8203,9.26,83,82,5.5,CL,1694462982
288,charlottetown,46.2352,-63.1267,23.21,90,100,3.6,CA,1694462429
289,bodo,67.28,14.405,13.02,88,75,2.06,NO,1694462984
290,visavadar,21.3833,70.6833,23.96,92,22,2.91,IN,1694462984
291,mananjary,-21.2167,48.3333,20.22,88,0,3.66,MG,1694462984
292,dhidhdhoo,6.8833,73.1,27.11,71,100,1.4,MV,1694462985
293,victoria,22.2855,114.1577,26.85,92,100,4.92,HK,1694462807
294,trincomalee,8.5711,81.2335,26.91,77,100,8.4,LK,1694462985
295,broken hill,-31.95,141.4333,10.12,64,1,2.82,AU,1694462985
296,mandal,25.45,74.5667,26.58,61,100,4.67,IN,1694462986
297,port lincoln,-34.7333,135.8667,14.01,48,28,3.58,AU,1694462986
298,mao,39.8885,4.2658,24.31,88,0,2.06,ES,1694462986
299,meridian,43.6121,-116.3915,33.07,29,0,3.09,US,1694462943
300,shalkar,47.8288,59.6258,11.9,65,41,5.36,KZ,1694462986
301,devils lake,48.1128,-98.8651,17.06,72,75,1.54,US,1694462987
302,ola,59.5833,151.2833,7.08,80,18,1.37,RU,1694462987
303,st. john's,47.5649,-52.7093,17.31,86,75,3.6,CA,1694462987
304,nebraska city,40.6767,-95.8592,24.7,37,100,3.08,US,1694462987
305,bandrele,-12.9067,45.1914,23.86,83,0,1.54,YT,1694462987
306,mabaruma,8.2,-59.7833,31.04,62,33,3.78,GY,1694462988
307,hibbing,47.4272,-92.9377,19.12,51,100,0.0,US,1694462988
308,bude,50.8243,-4.5413,18.33,90,33,2.11,GB,1694462988
309,borogontsy,62.6683,131.1683,1.26,96,85,1.35,RU,1694462988
310,college,64.8569,-147.8028,8.37,94,100,2.57,US,1694462989
311,roccella ionica,38.322,16.4009,23.62,66,15,3.0,IT,1694462989
312,sanchazi,42.0817,126.6003,11.28,90,48,0.66,CN,1694462989
313,riachao das neves,-11.7461,-44.91,33.51,22,0,3.1,BR,1694462989
314,shimoda,34.6667,138.95,24.5,84,34,1.54,JP,1694462990
315,tadine,-21.55,167.8833,20.34,78,19,5.33,NC,1694462990
316,mossel bay,-34.1831,22.146,10.45,59,50,5.51,ZA,1694462990
317,inari,68.906,27.0288,10.11,89,100,3.91,FI,1694462990
318,bataipora,-22.2953,-53.2711,32.58,35,0,2.34,BR,1694462991
319,kincardine,56.0667,-3.7167,16.07,89,100,2.99,GB,1694462991
320,takhtamukay,44.9215,38.9958,13.84,56,0,2.0,RU,1694462991
321,walvis bay,-22.9575,14.5053,12.27,58,0,9.09,NA,1694462991
322,vilyuysk,63.7553,121.6247,2.84,71,97,2.35,RU,1694462992
323,roma,43.2128,-75.4557,22.73,83,100,3.09,US,1694462906
324,charters towers,-20.1,146.2667,13.02,90,3,3.74,AU,1694462992
325,priozersk,61.0393,30.1291,16.08,91,78,2.37,RU,1694462992
326,tulagi,-9.0996,160.1476,27.05,75,12,6.4,SB,1694462992
327,south molton,51.0167,-3.8333,18.16,97,6,2.03,GB,1694462992
328,ceres,37.5949,-120.9577,31.5,26,0,3.09,US,1694462993
329,tabou,4.423,-7.3528,25.15,87,65,3.79,CI,1694462993
330,el porvenir,13.7617,-87.3458,32.63,37,35,1.35,HN,1694462993
331,al qadarif,14.0349,35.3834,25.08,81,100,1.89,SD,1694462993
332,naze,28.3667,129.4833,25.6,81,71,3.7,JP,1694462994
333,kenai,60.5544,-151.2583,12.27,79,0,4.12,US,1694462994
334,choyr,46.3611,108.3611,6.81,45,7,1.5,MN,1694462994
335,san jose del guaviare,2.5729,-72.6459,32.26,54,71,0.45,CO,1694462994
336,mili,6.0815,171.735,28.84,77,100,8.67,MH,1694462994
337,yanbu,24.0891,38.0637,29.93,70,9,3.39,SA,1694462995
338,easton,40.6884,-75.2207,27.88,79,75,2.57,US,1694462737
339,dereli,40.7378,38.4493,17.09,82,70,2.56,TR,1694462995
340,polva,58.0603,27.0694,16.68,72,65,2.21,EE,1694462995
341,tual,-5.6667,132.75,25.31,85,99,9.71,ID,1694462996
342,gijang,35.2442,129.2139,23.56,81,100,0.88,KR,1694462996
343,kourou,5.1552,-52.6478,30.03,70,99,4.92,GF,1694462997
344,rondonopolis,-16.4708,-54.6356,39.32,16,5,3.42,BR,1694462787
345,champerico,14.3,-91.9167,30.33,66,20,3.4,GT,1694462997
346,lihue,21.9789,-159.3672,27.58,76,20,6.17,US,1694462766
347,noyabrsk,63.1994,75.4507,10.7,79,90,3.13,RU,1694462998
348,portland,45.5234,-122.6762,25.38,58,75,3.13,US,1694462781
349,danielskuil,-28.1887,23.5395,1.96,37,0,3.45,ZA,1694462999
350,laascaanood,8.4774,47.3597,27.34,52,6,12.15,SO,1694462999
351,sapporo,43.0642,141.3469,23.95,100,100,3.17,JP,1694463000
352,contamana,-7.3333,-75.0167,38.0,29,66,0.5,PE,1694463000
353,mount isa,-20.7333,139.5,17.87,22,0,2.57,AU,1694463000
354,khandyga,62.6667,135.6,1.89,96,100,0.96,RU,1694463001
355,butterworth,5.3991,100.3638,27.02,89,20,0.0,MY,1694463001
356,magnolia,33.2671,-93.2393,29.93,48,84,2.31,US,1694463001
357,dengzhou,37.8086,120.7508,22.55,91,18,2.17,CN,1694463002
358,verkhnevilyuysk,63.4453,120.3167,4.33,70,100,1.97,RU,1694463002
359,puerto el triunfo,13.2833,-88.55,30.55,64,10,4.3,SV,1694463003
360,new glasgow,45.5834,-62.6486,21.55,95,100,1.57,CA,1694463003
361,keflavik,64.0049,-22.5624,8.24,71,20,2.57,IS,1694463004
362,sitka,57.0531,-135.33,15.94,59,75,6.17,US,1694463004
363,kiunga,-6.1219,141.2906,22.05,94,100,1.9,PG,1694463004
364,sambava,-14.2667,50.1667,21.14,86,13,3.72,MG,1694463005
365,padang,-0.9492,100.3543,25.03,90,75,2.71,ID,1694463005
366,tremp,42.167,0.8949,20.61,64,13,0.7,ES,1694462853
367,lobujya,27.95,86.8167,2.81,90,71,1.06,NP,1694463005
368,san patricio,28.017,-97.5169,36.4,31,0,5.51,US,1694463006
369,tocopilla,-22.092,-70.1979,20.46,68,20,3.4,CL,1694462478
370,geraldton,-28.7667,114.6,14.23,100,100,4.63,AU,1694463006
371,santo antonio,-6.3106,-35.4789,26.19,61,0,6.85,BR,1694462981
372,tukrah,32.5341,20.5791,23.76,65,86,6.15,LY,1694463006
373,hammerfest,70.6634,23.6821,10.25,81,75,0.0,NO,1694463007
374,al ghayzah,16.2079,52.176,27.28,89,100,6.27,YE,1694463007
375,yulinshi,38.2906,109.7494,18.16,41,2,4.0,CN,1694463007
376,miahuatlan de porfirio diaz,16.3333,-96.6,24.38,59,73,1.81,MX,1694463008
377,teshi old town,5.5836,-0.1072,25.14,87,82,5.52,GH,1694463008
378,pangody,65.85,74.4859,11.23,81,45,4.48,RU,1694463008
379,manokwari,-0.8667,134.0833,25.49,77,100,1.62,ID,1694463008
380,chiang rai,19.9167,99.9167,24.18,99,99,0.94,TH,1694463009
381,vuktyl,63.8567,57.3094,9.59,88,16,0.3,RU,1694463009
382,zarinsk,53.7074,84.9493,9.53,76,99,2.61,RU,1694463009
383,ghazni,33.5536,68.4269,19.36,14,0,2.34,AF,1694463010
384,karratha,-20.7377,116.8463,23.68,51,6,3.92,AU,1694463010
385,mar del plata,-38.0023,-57.5575,12.27,97,100,4.63,AR,1694463010
386,fort wellington,6.4,-57.6,30.03,65,10,4.95,GY,1694463010
387,atafu village,-8.5421,-172.5159,27.86,77,72,5.51,TK,1694463011
388,nuku'alofa,-21.1333,-175.2,24.19,73,20,4.12,TO,1694463011
389,inebolu,41.9747,33.7608,16.11,73,1,2.89,TR,1694463011
390,carnarvon,-24.8667,113.6333,18.95,83,8,3.64,AU,1694463012
391,amga,60.8953,131.9608,-0.25,92,46,1.08,RU,1694463012
392,fallon,39.4735,-118.7774,28.39,36,40,2.06,US,1694463012
393,tutong,4.8,114.65,24.05,93,100,2.0,BN,1694463012
394,tortoli,39.9256,9.6572,23.33,63,2,1.49,IT,1694463013
395,bubaque,11.2833,-15.8333,27.54,79,100,5.71,GW,1694463013
396,meadow lake,34.8014,-106.5436,28.04,42,60,4.64,US,1694463013
397,conception bay south,47.4999,-52.9981,17.18,85,100,3.92,CA,1694463013
398,tionk essil,12.7856,-16.5217,25.57,92,100,1.63,SN,1694463014
399,margate,51.3813,1.3862,19.83,85,100,1.34,GB,1694463014
400,queenstown,-31.8976,26.8753,2.92,63,75,2.38,ZA,1694463014
401,emerald,-23.5333,148.1667,12.15,82,0,3.78,AU,1694463014
402,tosontsengel,48.7567,98.2839,7.21,52,100,0.57,MN,1694463014
403,qamdo,31.1667,97.2333,1.92,93,100,1.32,CN,1694463015
404,oneonta,42.4529,-75.0638,24.5,78,91,2.06,US,1694463015
405,berezovyy,51.6667,135.7,9.76,98,100,1.15,RU,1694463015
406,altai,46.3722,96.2583,10.16,42,43,4.44,MN,1694463016
407,zorritos,-3.6805,-80.6782,28.16,71,88,4.57,PE,1694463016
408,daru,-9.0763,143.2092,24.82,71,90,8.51,PG,1694463016
409,belem de sao francisco,-8.7539,-38.9658,32.59,27,2,9.45,BR,1694463016
410,alofi,-19.0595,-169.9187,24.94,78,40,6.69,NU,1694462732
411,ciudad rodrigo,40.6,-6.5333,17.65,76,73,1.46,ES,1694463017
412,yelizovo,53.1873,158.3805,7.08,93,0,6.0,RU,1694463017
413,mosjoen,65.836,13.1908,15.06,94,75,1.03,NO,1694462946
414,vatra dornei,47.35,25.3667,11.69,80,66,0.71,RO,1694463017
415,caleta de carquin,-11.0925,-77.6267,21.22,73,18,5.87,PE,1694463018
416,greymouth,-42.4667,171.2,7.73,83,100,2.58,NZ,1694463018
417,susuman,62.7833,148.1667,0.84,87,38,1.98,RU,1694463018
418,mushie,-3.0167,16.9,27.41,66,100,2.06,CD,1694463018
419,carloforte,39.145,8.3058,23.89,66,47,2.81,IT,1694463019
420,robertsport,6.7533,-11.3686,26.37,83,36,2.62,LR,1694463019
421,dieppe,49.75,1.1667,18.51,93,100,0.79,FR,1694462883
422,lagoa,39.05,-27.9833,21.58,77,5,4.47,PT,1694463019
423,gilgit,35.9221,74.3087,27.17,32,0,0.69,PK,1694463019
424,mont-dore,-22.2833,166.5833,21.67,99,93,3.44,NC,1694463020
425,gemena,3.25,19.7667,22.38,92,100,0.75,CD,1694463020
426,fasa,28.9383,53.6482,27.66,25,0,0.74,IR,1694463020
427,ormara,25.2088,64.6357,26.16,89,25,6.12,PK,1694463020
428,puerto santa,-8.9906,-78.6456,21.4,77,13,6.14,PE,1694463020
429,anchau,10.9597,8.3916,24.06,83,88,0.73,NG,1694463021
430,ceccano,41.5677,13.3333,24.3,46,0,1.48,IT,1694463022
431,lagos,6.5833,3.75,25.07,92,100,2.92,NG,1694462889
432,vavoua,7.3819,-6.4778,23.31,96,15,0.42,CI,1694463022
433,ayapel,8.3137,-75.1398,31.65,71,50,1.91,CO,1694463023
434,hadibu,12.65,54.0333,26.83,81,76,7.63,YE,1694463023
435,kavieng,-2.5744,150.7967,26.97,80,98,4.31,PG,1694463023
436,buarcos,40.166,-8.8768,19.26,91,46,1.13,PT,1694463023
437,lhuentse,27.6679,91.1839,21.0,97,100,0.73,BT,1694463023
438,belyy yar,53.6039,91.3903,9.94,93,0,0.0,RU,1694463024
439,punta alta,-38.8759,-62.0736,17.43,31,20,11.83,AR,1694463024
440,dahlonega,34.5326,-83.9849,31.9,56,12,2.62,US,1694462773
441,praia da vitoria,38.7333,-27.0667,23.75,79,23,2.6,PT,1694463024
442,maralal,1.0968,36.698,18.45,62,100,3.05,KE,1694463024
443,salalah,17.0151,54.0924,26.67,89,100,2.88,OM,1694463026
444,broome,42.2506,-75.833,23.72,80,100,4.12,US,1694463026
445,buka,40.8108,69.1986,16.79,34,0,2.14,UZ,1694463026
446,juneau,58.3019,-134.4197,12.34,93,100,7.72,US,1694462902
447,harper,4.375,-7.7169,25.31,86,80,3.91,LR,1694463027
448,lockwood,45.8191,-108.4149,25.94,30,20,2.06,US,1694463027
449,amahai,-3.3333,128.9167,24.62,90,68,3.36,ID,1694462896
450,al jawf,29.5,38.75,28.81,18,5,3.79,SA,1694463028
451,tshabong,-26.05,22.45,6.71,40,0,4.81,BW,1694463028
452,datong,40.0936,113.2914,15.03,37,2,2.37,CN,1694463028
453,saint-leu,-21.15,55.2833,22.46,77,12,3.24,RE,1694463028
454,piriapolis,-34.8682,-55.2744,18.09,94,75,7.72,UY,1694463029
455,letterkenny,54.95,-7.7333,13.96,79,100,1.72,IE,1694463029
456,nizhnyaya poyma,56.1622,97.1933,5.27,86,56,2.26,RU,1694463029
457,camocim,-2.9022,-40.8411,28.5,66,2,9.51,BR,1694462797
458,vorkuta,67.5,64.0,11.78,90,100,2.76,RU,1694463030
459,porto novo,6.4965,2.6036,25.18,90,67,3.63,BJ,1694463030
460,tucumcari,35.1717,-103.725,20.91,64,100,12.35,US,1694462730
461,la'ie,21.6477,-157.9253,29.98,69,9,4.02,US,1694463030
462,kaa-khem,51.6833,94.7333,12.11,51,79,2.15,RU,1694463030
463,cadiz,36.5,-5.75,21.53,74,3,2.12,ES,1694463031
464,satsuma,30.8532,-88.0561,35.58,33,5,3.7,US,1694463031
465,aldan,58.6031,125.3894,-1.21,90,13,0.38,RU,1694463031
466,sinop,41.7711,34.8709,10.86,89,17,1.39,TR,1694463031
467,gorontalo,0.5412,123.0595,24.2,95,100,1.3,ID,1694463031
468,ouarzazat,30.9189,-6.8934,30.16,10,40,8.75,MA,1694463032
469,benguela,-12.5763,13.4055,20.92,85,16,2.21,AO,1694463032
470,chegdomyn,51.1167,133.0167,13.58,97,100,2.29,RU,1694463032
471,belmonte,-15.8631,-38.8828,24.45,75,7,2.75,BR,1694463032
472,majene,-3.5403,118.9707,24.95,86,88,3.67,ID,1694463033
473,magdagachi,53.45,125.8,7.01,54,100,5.06,RU,1694463033
474,fetsund,59.929,11.1625,17.88,99,100,4.12,NO,1694463033
475,boguchany,58.3814,97.4531,4.56,81,11,1.22,RU,1694463033
476,teluk nibung,3.001,99.8164,24.71,94,100,2.31,ID,1694463033
477,alapayevsk,57.8516,61.6963,11.89,77,100,3.27,RU,1694463034
478,asa,58.0167,14.6,17.71,80,100,3.87,SE,1694463034
479,minas de marcona,-15.2119,-75.1103,18.06,58,4,7.19,PE,1694463034
480,itoman,26.1247,127.6694,27.01,83,50,3.6,JP,1694463034
481,chibuto,-24.6867,33.5306,22.01,75,78,9.1,MZ,1694463035
482,akureyri,65.6835,-18.0878,3.96,65,0,0.51,IS,1694463035
483,timimoun,29.2639,0.231,35.67,20,78,2.81,DZ,1694463035
484,port-vila,-17.7338,168.3219,20.78,100,75,1.03,VU,1694463036
485,haimen,23.1935,116.6142,25.74,89,98,1.74,CN,1694463036
486,san antonio de pale,-1.4014,5.6325,23.59,84,100,6.46,GQ,1694463036
487,santyoku,37.4406,129.1708,22.79,78,100,2.01,KR,1694463036
488,sevastopol,44.6,33.5333,17.78,53,0,0.45,UA,1694463036
489,lluta,-16.0147,-72.0142,15.44,25,3,4.53,PE,1694463037
490,yemetsk,63.4721,41.7941,11.16,94,52,1.93,RU,1694463037
491,corinto,37.9407,22.9573,22.16,46,0,2.06,GR,1694463037
492,leer,53.2316,7.461,21.64,90,79,2.73,DE,1694463037
493,kerimaki,61.9167,29.2833,15.97,94,20,3.6,FI,1694463038
494,zaqatala,41.6336,46.6433,14.26,100,100,1.03,AZ,1694463038
495,uliastay,47.7417,96.8444,10.44,44,100,2.49,MN,1694463038
496,cannonvale,-20.2833,148.7,20.66,60,0,8.88,AU,1694463038
497,tulun,54.5611,100.5792,4.62,88,59,1.76,RU,1694463038
498,chibougamau,49.9168,-74.3659,17.3,52,64,2.94,CA,1694463039
499,wenling,28.3669,121.36,24.25,85,93,1.86,CN,1694463039
500,argostolion,38.1811,20.489,24.04,42,0,2.06,GR,1694463039
501,shache,38.4167,77.2406,24.01,19,0,2.7,CN,1694463039
502,berdigestyakh,62.0989,126.6992,-0.69,96,99,2.12,RU,1694463039
503,sibundoy,1.2048,-76.9237,21.37,77,46,2.57,CO,1694463040
504,viqueque,-8.8673,126.3658,22.83,91,26,0.72,TL,1694463040
505,shangrao,28.4532,117.9686,24.14,90,100,0.95,CN,1694463040
506,greenville,35.6127,-77.3663,31.09,57,40,2.06,US,1694462886
507,impfondo,1.6381,18.0667,23.59,82,75,1.36,CG,1694463040
508,howrah,22.5892,88.3103,29.0,89,75,0.0,IN,1694463041
509,el naranjo,21.4667,-98.6,38.85,26,0,2.6,MX,1694463041
510,tomatlan,19.9333,-105.25,33.03,62,50,3.88,MX,1694463041
511,tamanrasset,22.785,5.5228,30.95,18,40,5.14,DZ,1694463041
512,parintins,-2.6283,-56.7358,31.4,51,69,3.13,BR,1694463041
513,meulaboh,4.1363,96.1285,25.12,91,98,1.8,ID,1694463042
514,moscow,55.7522,37.6156,11.29,66,14,1.73,RU,1694462630
515,zhezqazghan,47.7833,67.7667,12.59,58,46,12.13,KZ,1694463042
516,kisangani,0.5167,25.2,22.48,97,90,0.49,CD,1694463042
517,poltavka,54.3663,71.7632,14.33,53,100,9.2,RU,1694463042
518,barcelona,41.3888,2.159,25.42,76,20,2.06,ES,1694463043
519,cadale,2.7603,46.3222,25.83,82,56,5.14,SO,1694463043
520,kuloy,61.0305,42.4925,9.59,89,9,1.53,RU,1694463043
521,xilin hot,43.9667,116.0333,7.23,49,32,1.31,CN,1694463043
522,antofagasta,-23.65,-70.4,18.6,69,42,3.6,CL,1694462761
523,aral,40.5156,81.2636,25.62,20,0,3.76,CN,1694463044
524,puerto deseado,-47.7503,-65.8938,10.69,45,100,1.9,AR,1694463044
525,skowhegan,44.7651,-69.7192,23.54,93,100,2.16,US,1694463021
526,palmer,42.1584,-72.3287,26.4,70,76,1.28,US,1694463044
527,aljezur,37.3191,-8.8033,19.55,86,100,2.49,PT,1694463044
528,burabay,53.0838,70.3138,10.76,95,100,9.07,KZ,1694463045
529,santa ana,33.7456,-117.8678,35.36,55,75,4.63,US,1694462990
530,det udom,14.906,105.0784,23.61,95,100,2.2,TH,1694463045
531,iquique,-20.2208,-70.1431,21.02,72,29,1.21,CL,1694462638
532,sale,34.0389,-6.8166,22.64,94,40,2.57,MA,1694463045
533,bengkulu,-3.8004,102.2655,21.81,91,19,2.18,ID,1694463046
534,zapolyarnyy,69.4154,30.8136,11.6,62,100,2.54,RU,1694463046
535,recani,31.2846,-4.2688,35.05,15,74,10.77,MA,1694463046
536,corner brook,48.9667,-57.9484,13.97,99,100,1.43,CA,1694463046
537,rethel,49.5,4.3333,22.93,78,82,2.91,FR,1694463047
538,lucea,18.451,-78.1736,30.18,75,16,5.79,JM,1694463047
539,bel ombre,-4.6167,55.4167,26.91,78,75,8.75,SC,1694463047
540,ust-kamenogorsk,49.9789,82.6103,15.69,71,100,2.43,KZ,1694463047
541,richards bay,-28.783,32.0377,14.71,82,100,12.71,ZA,1694463047
542,sirte,31.2089,16.5887,25.51,60,0,3.87,LY,1694463048
543,cabedelo,-6.9811,-34.8339,26.37,78,15,7.36,BR,1694463048
544,khorugh,37.4897,71.553,14.87,39,0,1.69,TJ,1694463048
545,swakopmund,-22.6833,14.5333,12.21,76,0,4.92,NA,1694463048
546,wajir,1.7471,40.0573,29.04,47,67,8.23,KE,1694463048
547,san pedro pochutla,15.7333,-96.4667,32.06,55,23,3.54,MX,1694463049
548,salekhard,66.53,66.6019,10.96,80,12,2.61,RU,1694463049
549,chui,-33.6971,-53.4616,19.19,93,100,2.78,UY,1694463050
550,pestravka,52.405,49.9583,10.52,86,97,3.44,RU,1694463050
551,kavaratti,10.5669,72.642,27.65,80,100,6.04,IN,1694463050
552,rechka-vydrino,51.485,104.8461,8.5,74,8,1.33,RU,1694463050
553,betio village,1.358,172.9211,27.02,75,36,3.77,KI,1694463050
554,fukuecho,32.6881,128.8419,25.83,74,85,1.21,JP,1694463051
555,podgornoye,51.735,39.1496,9.12,87,100,1.0,RU,1694463051
556,port shepstone,-30.7414,30.455,12.73,65,100,12.9,ZA,1694463051
557,kailua-kona,19.6406,-155.9956,27.98,83,40,3.6,US,1694462947
558,abbeville,50.1,1.8333,18.61,93,98,1.53,FR,1694463052
559,san jeronimo de juarez,17.1333,-100.4667,30.31,69,51,2.3,MX,1694463052
560,fort mcmurray,56.7268,-111.381,26.77,27,7,8.23,CA,1694463052
561,al hamul,31.3115,31.1477,25.28,81,0,2.64,EG,1694463052
562,onguday,50.75,86.15,9.55,92,100,1.39,RU,1694463053
563,maych'ew,12.7875,39.5422,16.21,74,92,0.54,ET,1694463053
564,itaituba,-4.2761,-55.9836,32.65,44,92,1.49,BR,1694463053
